index_column,time,dt,yaw,pitch,roll,displacement_north,displacement_east,altitude_geometric,geodetic_lat
0,0,9.39999999900465e-05,0,0,0,0,0,0,-36.4823
1,9.39999999900465e-05,8.40000000152941e-05,0,0,0,0,0,0,-36.4823
2,0.000178000000005341,5.59999999723004e-05,-5.06265506484794e-08,-5.06265506484794e-08,-5.06265506484794e-08,0,0,0,-36.4823
3,0.000233999999977641,0.000232000000039534,-36.694414079294,-36.694414079294,-36.694414079294,0,0,0,-36.4823
4,0.000466000000017175,0.102221999999983,-36.694414079294,-36.694414079294,-36.694414079294,0,0,2.7351615999963e-08,-36.4823
5,0.102688000000001,9.09999999976208e-05,-36.694414079294,-36.694414079294,-36.694414079294,0,0,2.7351615999963e-08,-36.4823
6,0.102778999999998,9.69999999824722e-05,56.3906955728641,56.3906955728641,56.3906955728641,0.0167545559502913,-0.0180856475924384,0.00208895956777175,-36.4823
7,0.102875999999981,5.30000000367181e-05,56.2325286051735,56.2325286051735,56.2325286051735,0.0167545559502913,-0.0180856475924384,0.00208895956777175,-36.4823
8,0.102929000000017,0.00034499999998161,56.082636361925,56.082636361925,56.082636361925,0.0165949643532911,-0.0180638073352517,0.00210443974703352,-36.4823
9,0.103273999999999,0.178196000000014,56.0826363646445,56.0826363646445,56.0826363646445,0.0165949643555718,-0.01806380733519,0.00209559077856359,-36.4823
10,0.281470000000013,9.09999999976208e-05,56.0826363646445,56.0826363646445,56.0826363646445,0.0165949643555718,-0.01806380733519,0.00209559077856359,-36.4823
11,0.281561000000011,9.69999999824722e-05,-23.0398248256519,-23.0398248256519,-23.0398248256519,-0.112021905641489,0.00557944628355582,0.0199206480703697,-36.4823
12,0.281657999999993,5.60000000291438e-05,-19.5361107160792,-19.5361107160792,-19.5361107160792,-0.112021905641489,0.00557944628355582,0.0199206480703697,-36.4823
13,0.281714000000022,0.000230999999985215,-21.4499937416486,-21.4499937416486,-21.4499937416486,-0.112653843632575,0.00584473411122863,0.0200018875090934,-36.4823
14,0.281945000000007,9.79999999799475e-05,-21.4499935197067,-21.4499935197067,-21.4499935197067,-0.112653843557759,0.00584473409945507,0.0199801202282589,-36.4823
15,0.282042999999987,9.80000000367909e-05,-26.341633337857,-26.341633337857,-26.341633337857,-0.115624494163635,0.00108216981645924,0.0212653862704703,-36.4823
16,0.282141000000024,5.09999999849242e-05,-26.3302556790017,-26.3302556790017,-26.3302556790017,-0.115624494163635,0.00108216981645924,0.0212653862704703,-36.4823
17,0.282192000000009,0.000233999999977641,-28.2463543047353,-28.2463543047353,-28.2463543047353,-0.116143495049202,0.00126254796519426,0.0213436740084605,-36.4823
18,0.282425999999987,9.00000000001455e-05,-28.2463540819448,-28.2463540819448,-28.2463540819448,-0.116143494986662,0.00126254795522041,0.0213203342289064,-36.4823
19,0.282515999999987,9.70000000393156e-05,-31.8290940242019,-31.8290940242019,-31.8290940242019,-0.116927749500223,-5.44950491525641e-05,0.0216690596954987,-36.4823
20,0.282613000000026,5.39999999773499e-05,-31.8167396983612,-31.8167396983612,-31.8167396983612,-0.116927749500223,-5.44950491525641e-05,0.0216690596954987,-36.4823
21,0.282667000000004,0.000234999999975116,-33.6745930815071,-33.6745930815071,-33.6745930815071,-0.11740053619143,8.89518929593714e-05,0.0217460435721823,-36.4823
22,0.282901999999979,9.70000000393156e-05,-33.6745928666431,-33.6745928666431,-33.6745928666431,-0.117400536133213,8.89518837577929e-05,0.0217211514931581,-36.4823
23,0.282999000000018,9.29999999925712e-05,-35.9426019229027,-35.9426019229027,-35.9426019229027,-0.117598568481956,-0.000303932401067949,0.0218186796969947,-36.4823
24,0.283092000000011,5.49999999748252e-05,-35.9294663578793,-35.9294663578793,-35.9294663578793,-0.117598568481956,-0.000303932401067949,0.0218186796969947,-36.4823
25,0.283146999999985,0.000234000000034484,-37.713159760525,-37.713159760525,-37.713159760525,-0.118050872620664,-0.000177943414672764,0.0218951782876421,-36.4823
26,0.28338100000002,9.00000000001455e-05,-37.7131595567963,-37.7131595567963,-37.7131595567963,-0.118050872563941,-0.000177943423590289,0.0218687424152293,-36.4823
27,0.28347100000002,9.69999999824722e-05,-39.0555899072285,-39.0555899072285,-39.0555899072285,-0.118094688665274,-0.000300926557930151,0.0218959473474612,-36.4823
28,0.283568000000002,5.09999999849242e-05,-39.0426635357409,-39.0426635357409,-39.0426635357409,-0.118094688665274,-0.000300926557930151,0.0218959473474612,-36.4823
29,0.283618999999987,0.000234000000034484,-40.7518052775985,-40.7518052775985,-40.7518052775985,-0.118537156183214,-0.000183501011321004,0.0219722486984906,-36.4823
30,0.283853000000022,9.69999999824722e-05,-40.7518050856057,-40.7518050856057,-40.7518050856057,-0.118537156126922,-0.000183501020171694,0.0219442732036852,-36.4823
31,0.283950000000004,9.49999999875217e-05,-41.5223903803256,-41.5223903803256,-41.5223903803256,-0.118543213524251,-0.000224152070566762,0.0219517122829233,-36.4823
32,0.284044999999992,5.50000000316686e-05,-41.5094154123946,-41.5094154123946,-41.5094154123946,-0.118543213524251,-0.000224152070566762,0.0219517122829233,-36.4823
33,0.284100000000024,0.00022999999998774,-43.1486953033758,-43.1486953033758,-43.1486953033758,-0.118980629297333,-0.000110950696056384,0.0220279187975855,-36.4823
34,0.284330000000011,9.5999999984997e-05,-43.1486951227439,-43.1486951227439,-43.1486951227439,-0.118980629241082,-0.000110950704928616,0.0219984079501226,-36.4823
35,0.284425999999996,9.69999999824722e-05,-43.5901336366329,-43.5901336366329,-43.5901336366329,-0.118979187719294,-0.000125345526909064,0.0220003800073632,-36.4823
36,0.284522999999979,5.10000000417676e-05,-43.5775035564145,-43.5775035564145,-43.5775035564145,-0.118979187719294,-0.000125345526909064,0.0220003800073632,-36.4823
37,0.284574000000021,0.000233999999977641,-45.1518770949331,-45.1518770949331,-45.1518770949331,-0.119413892092517,-1.41397296691893e-05,0.0220765418344266,-36.4823
38,0.284807999999998,9.1999999995096e-05,-45.1518769250058,-45.1518769250058,-45.1518769250058,-0.119413892036155,-1.41397385998314e-05,0.0220454984267131,-36.4823
39,0.284899999999993,9.90000000342661e-05,-45.4112393461891,-45.4112393461891,-45.4112393461891,-0.119412065970997,-1.96377995904817e-05,0.0220460210182805,-36.4823
40,0.284999000000028,5.59999999723004e-05,-45.3989861050208,-45.3989861050208,-45.3989861050208,-0.119412065970997,-1.96377995904817e-05,0.0220460210182805,-36.4823
41,0.285055,0.000230999999985215,-46.9122900977528,-46.9122900977528,-46.9122900977528,-0.119845259794497,9.07360386487238e-05,0.0221221661044911,-36.4823
42,0.285285999999985,0.0754909999999995,-46.9122899378794,-46.9122899378794,-46.9122899378794,-0.119845259737972,9.07360296462387e-05,0.022089593811791,-36.4823
43,0.360776999999985,9.49999999875217e-05,-46.9122899378794,-46.9122899378794,-46.9122899378794,-0.119845259737972,9.07360296462387e-05,0.022089593811791,-36.4823
44,0.360871999999972,0.000100000000031741,-45.0234623517701,-45.0234623517701,-45.0234623517701,-0.119727053454266,0.000104046801556923,0.0220807740372162,-36.4823
45,0.360972000000004,5.39999999773499e-05,-43.494283141391,-43.494283141391,-43.494283141391,-0.119727053454266,0.000104046801556923,0.0220807740372162,-36.4823
46,0.361025999999981,0.000340999999991709,-44.9839944487087,-44.9839944487087,-44.9839944487087,-0.120312605437172,0.000341581273884797,0.0221919988890137,-36.4823
47,0.361366999999973,0.000186000000041986,-44.9839942967936,-44.9839942967936,-44.9839942967936,-0.120312605355138,0.000341581251526894,0.0221688816779661,-36.4823
48,0.361553000000015,9.49999999875217e-05,-44.9839942967936,-44.9839942967936,-44.9839942967936,-0.120312605355138,0.000341581251526894,0.0221688816779661,-36.4823
49,0.361648000000002,9.29999999925712e-05,-44.4383161744188,-44.4383161744188,-44.4383161744188,-0.120292975663527,0.000347451469469573,0.0221672846338596,-36.4823
50,0.361740999999995,5.50000000316686e-05,-44.4232533372669,-44.4232533372669,-44.4232533372669,-0.120292975663527,0.000347451469469573,0.0221672846338596,-36.4823
51,0.361796000000027,0.000232999999980166,-45.8692363554855,-45.8692363554855,-45.8692363554855,-0.120879070186859,0.000583061249774083,0.0222786858965251,-36.4823
52,0.362029000000007,9.49999999875217e-05,-45.8692362113824,-45.8692362113824,-45.8692362113824,-0.120879070104508,0.000583061227276001,0.022254563868432,-36.4823
53,0.362123999999994,9.69999999824722e-05,-45.6168720686676,-45.6168720686676,-45.6168720686676,-0.120875425327709,0.000584061828898028,0.0222545005720585,-36.4823
54,0.362220999999977,5.10000000417676e-05,-45.6079062932059,-45.6079062932059,-45.6079062932059,-0.120875425327709,0.000584061828898028,0.0222545005720585,-36.4823
55,0.362272000000019,0.000233999999977641,-47.0096765382061,-47.0096765382061,-47.0096765382061,-0.121461323550696,0.000818421220126837,0.0223659041594563,-36.4823
56,0.362505999999996,9.39999999900465e-05,-47.0096764016791,-47.0096764016791,-47.0096764016791,-0.121461323468193,0.000818421197560905,0.0223407704106559,-36.4823
57,0.362599999999986,9.29999999925712e-05,-46.9058052493049,-46.9058052493049,-46.9058052493049,-0.121462102367699,0.000818593468109596,0.0223411061731653,-36.4823
58,0.362692999999979,5.60000000291438e-05,-46.8970922644404,-46.8970922644404,-46.8970922644404,-0.121462102367699,0.000818593468109596,0.0223411061731653,-36.4823
59,0.362749000000008,0.000235999999972591,-48.2545263304775,-48.2545263304775,-48.2545263304775,-0.122047907895008,0.0010524421277015,0.0224525290020567,-36.4823
60,0.362984999999981,9.80000000367909e-05,-48.254526201224,-48.254526201224,-48.254526201224,-0.122047907812353,0.0010524421050685,0.0224263849008715,-36.4823
61,0.363083000000017,9.79999999799475e-05,-48.2273307243888,-48.2273307243888,-48.2273307243888,-0.122049721677547,0.00105265404491571,0.0224267863587394,-36.4823
62,0.363180999999997,5.09999999849242e-05,-48.2187366555405,-48.2187366555405,-48.2187366555405,-0.122049721677547,0.00105265404491571,0.0224267863587394,-36.4823
63,0.363231999999982,0.000234000000034484,-49.5312637969428,-49.5312637969428,-49.5312637969428,-0.122635359352071,0.00128634464267554,0.0225382129011084,-36.4823
64,0.363466000000017,8.90000000026703e-05,-49.5312636746802,-49.5312636746802,-49.5312636746802,-0.122635359269263,0.00128634461997559,0.0225110600363195,-36.4823
65,0.363555000000019,9.79999999799475e-05,-49.543683547496,-49.543683547496,-49.543683547496,-0.122637280997332,0.00128670290463757,0.0225114429534619,-36.4823
66,0.363652999999999,5.49999999748252e-05,-49.5355222101313,-49.5355222101313,-49.5355222101313,-0.122637280997332,0.00128670290463757,0.0225114429534619,-36.4823
67,0.363707999999974,0.000232000000039534,-50.8026890358196,-50.8026890358196,-50.8026890358196,-0.123222629928675,0.00152039653489304,0.0226228495032066,-36.4823
68,0.363940000000014,9.5999999984997e-05,-50.8026889202624,-50.8026889202624,-50.8026889202624,-0.123222629845712,0.0015203965121255,0.0225946888996931,-36.4823
69,0.364035999999999,9.69999999824722e-05,-50.8353122801501,-50.8353122801501,-50.8353122801501,-0.123224449349256,0.00152086108853081,0.0225950406642587,-36.4823
70,0.364132999999981,5.10000000417676e-05,-50.8272342425762,-50.8272342425762,-50.8272342425762,-0.123224449349256,0.00152086108853081,0.0225950406642587,-36.4823
71,0.364184000000023,0.000233999999977641,-52.0489166273217,-52.0489166273217,-52.0489166273217,-0.123809372726131,0.00175461048485322,0.0227064000050668,-36.4823
72,0.364418000000001,9.00000000001455e-05,-52.0489165181824,-52.0489165181824,-52.0489165181824,-0.123809372643017,0.00175461046202013,0.0226772330724328,-36.4823
73,0.364508000000001,9.69999999824722e-05,-52.0915689277655,-52.0915689277655,-52.0915689277655,-0.123811075293612,0.0017551355934608,0.0226775590593818,-36.4823
74,0.364604999999983,5.10000000417676e-05,-52.0838740905423,-52.0838740905423,-52.0838740905423,-0.123811075293612,0.0017551355934608,0.0226775590593818,-36.4823
75,0.364656000000025,0.000235999999972591,-53.2602841538804,-53.2602841538804,-53.2602841538804,-0.124395476280034,0.00198896593902694,0.0227888525855497,-36.4823
76,0.364891999999998,9.39999999900465e-05,-53.2602840508604,-53.2602840508604,-53.2602840508604,-0.124395476196766,0.00198896591612711,0.0227586804270694,-36.4823
77,0.364985999999988,9.49999999875217e-05,-53.3075748465318,-53.3075748465318,-53.3075748465318,-0.124397090838586,0.00198952259687659,0.0227589885960142,-36.4823
78,0.365080999999975,5.50000000316686e-05,-53.3000144540637,-53.3000144540637,-53.3000144540637,-0.124397090838586,0.00198952259687659,0.0227589885960142,-36.4823
79,0.365136000000007,0.00023199999998269,-54.4316755820784,-54.4316755820784,-54.4316755820784,-0.124980872578419,0.00222342432450738,0.0228701971260684,-36.4823
80,0.365367999999989,0.0735819999999876,-54.4316754848806,-54.4316754848806,-54.4316754848806,-0.124980872494999,0.00222342430154227,0.0228390215000357,-36.4823
81,0.438949999999977,0.000101000000029217,-54.4316754848806,-54.4316754848806,-54.4316754848806,-0.124980872494999,0.00222342430154227,0.0228390215000357,-36.4823
82,0.439051000000006,9.29999999925712e-05,-54.3476750724711,-54.3476750724711,-54.3476750724711,-0.124977706532261,0.00221449021411127,0.0228400599057933,-36.4823
83,0.439143999999999,5.49999999748252e-05,-53.3465348801173,-53.3465348801173,-53.3465348801173,-0.124977706532261,0.00221449021411127,0.0228400599057933,-36.4823
84,0.439198999999974,0.000337000000001808,-54.4400148918862,-54.4400148918862,-54.4400148918862,-0.125697510969927,0.00256236096564004,0.0229830523187863,-36.4823
85,0.439535999999976,0.000186000000041986,-54.4400147402879,-54.4400147402879,-54.4400147402879,-0.125697510793781,0.00256236090696473,0.0229424673333836,-36.4823
86,0.439722000000017,9.09999999976208e-05,-54.4400147402879,-54.4400147402879,-54.4400147402879,-0.125697510793781,0.00256236090696473,0.0229424673333836,-36.4823
87,0.439813000000015,9.89999999774227e-05,-54.7205313936897,-54.7205313936897,-54.7205313936897,-0.125705545826307,0.00256027098381076,0.0229427658368687,-36.4823
88,0.439911999999993,5.09999999849242e-05,-54.7104816904909,-54.7104816904909,-54.7104816904909,-0.125705545826307,0.00256027098381076,0.0229427658368687,-36.4823
89,0.439962999999977,0.000238000000024385,-55.7612106516363,-55.7612106516363,-55.7612106516363,-0.126426251045041,0.00290690760762092,0.0230859477574538,-36.4823
90,0.440201000000002,9.49999999875217e-05,-55.7612105086256,-55.7612105086256,-55.7612105086256,-0.126426250868179,0.00290690754866015,0.0230440754365151,-36.4823
91,0.440295999999989,9.29999999925712e-05,-55.9358379608181,-55.9358379608181,-55.9358379608181,-0.126429151956917,0.00290527227523016,0.0230442416499028,-36.4823
92,0.440388999999982,5.50000000316686e-05,-55.9296307502679,-55.9296307502679,-55.9296307502679,-0.126429151956917,0.00290527227523016,0.0230442416499028,-36.4823
93,0.440444000000014,0.000228999999990265,-56.9377421516502,-56.9377421516502,-56.9377421516502,-0.127148716358778,0.00325043716738866,0.0231872027650778,-36.4823
94,0.440673000000004,9.5999999984997e-05,-56.937742016778,-56.937742016778,-56.937742016778,-0.12714871618156,0.00325043710829443,0.0231440549339033,-36.4823
95,0.440768999999989,9.69999999824722e-05,-57.0547263469997,-57.0547263469997,-57.0547263469997,-0.127150272881179,0.0032495949473369,0.0231442304145227,-36.4823
96,0.440865999999971,5.30000000367181e-05,-57.0488108160621,-57.0488108160621,-57.0488108160621,-0.127150272881179,0.0032495949473369,0.0231442304145227,-36.4823
97,0.440919000000008,0.000234999999975116,-58.0158923184425,-58.0158923184425,-58.0158923184425,-0.127868365025528,0.00359366678768721,0.0232869128182685,-36.4823
98,0.441153999999983,9.60000000418404e-05,-58.0158921911802,-58.0158921911802,-58.0158921911802,-0.127868364847962,0.00359366672846333,0.0232424889611411,-36.4823
99,0.441250000000025,9.5999999984997e-05,-58.1018192302532,-58.1018192302532,-58.1018192302532,-0.127869687079929,0.00359345012787702,0.0232427053762403,-36.4823
100,0.44134600000001,5.49999999748252e-05,-58.0959696320321,-58.0959696320321,-58.0959696320321,-0.127869687079929,0.00359345012787702,0.0232427053762403,-36.4823
101,0.441400999999985,0.000228999999990265,-59.0236234557137,-59.0236234557137,-59.0236234557137,-0.128586215430103,0.00393668765948491,0.0233850959036214,-36.4823
102,0.441629999999975,9.50000000443652e-05,-59.0236233355867,-59.0236233355867,-59.0236233355867,-0.128586215252178,0.00393668760012675,0.0233393948685873,-36.4823
103,0.441725000000019,9.79999999799475e-05,-59.0926204960525,-59.0926204960525,-59.0926204960525,-0.128587600988616,0.00393689117005651,0.0233396529234848,-36.4823
104,0.441822999999999,5.09999999849242e-05,-59.0870058412899,-59.0870058412899,-59.0870058412899,-0.128587600988616,0.00393689117005651,0.0233396529234848,-36.4823
105,0.441873999999984,0.00023700000002691,-59.9767634156828,-59.9767634156828,-59.9767634156828,-0.129302516354606,0.0042794297440826,0.023481743688706,-36.4823
106,0.442111000000011,9.09999999976208e-05,-59.9767633022659,-59.9767633022659,-59.9767633022659,-0.12930251617633,0.004279429684593,0.0234347650489256,-36.4823
107,0.442202000000009,9.69999999824722e-05,-60.0362231377842,-60.0362231377842,-60.0362231377842,-0.129304016252279,0.00427989710287078,0.023435056138894,-36.4823
108,0.442298999999991,5.09999999849242e-05,-60.030744489423,-60.030744489423,-60.030744489423,-0.129304016252279,0.00427989710287078,0.023435056138894,-36.4823
109,0.442349999999976,0.000234000000034484,-60.8840738782339,-60.8840738782339,-60.8840738782339,-0.130017303746241,0.00462182024626785,0.0235768455280984,-36.4823
110,0.442584000000011,9.49999999875217e-05,-60.8840737711274,-60.8840737711274,-60.8840737711274,-0.130017303567608,0.0046218201866443,0.0235285883472021,-36.4823
111,0.442678999999998,9.29999999925712e-05,-60.9379329715747,-60.9379329715747,-60.9379329715747,-0.13001890190151,0.00462244808254731,0.0235289029572378,-36.4823
112,0.442771999999991,5.50000000316686e-05,-60.9326103261764,-60.9326103261764,-60.9326103261764,-0.13001890190151,0.00462244808254731,0.0235289029572378,-36.4823
113,0.442827000000023,0.000239999999962492,-61.7509278218911,-61.7509278218911,-61.7509278218911,-0.130730517155415,0.00496377707040294,0.0236703820096996,-36.4823
114,0.443066999999985,9.00000000001455e-05,-61.7509277207245,-61.7509277207245,-61.7509277207245,-0.130730516976432,0.00496377701064939,0.0236208456572549,-36.4823
115,0.443156999999985,9.80000000367909e-05,-61.8012542572325,-61.8012542572325,-61.8012542572325,-0.130732186130135,0.00496450066942945,0.0236211760509142,-36.4823
116,0.443255000000022,5.09999999849242e-05,-61.7960727576554,-61.7960727576554,-61.7960727576554,-0.130732186130135,0.00496450066942945,0.0236211760509142,-36.4823
117,0.443306000000007,0.000235999999972591,-62.5807561643136,-62.5807561643136,-62.5807561643136,-0.131442111828443,0.00530525774347035,0.0237623420019679,-36.4823
118,0.443541999999979,0.0745410000000106,-62.5807560687314,-62.5807560687314,-62.5807560687314,-0.131442111649101,0.0053052576835819,0.023711525504292,-36.4823
119,0.51808299999999,9.69999999824722e-05,-62.5807560687314,-62.5807560687314,-62.5807560687314,-0.131442111649101,0.0053052576835819,0.023711525504292,-36.4823
120,0.518179999999973,9.70000000393156e-05,-62.9940216089213,-62.9940216089213,-62.9940216089213,-0.131461427883289,0.00526721861835969,0.0237134889534241,-36.4823
121,0.518277000000012,5.09999999849242e-05,-62.0857921129535,-62.0857921129535,-62.0857921129535,-0.131461427883289,0.00526721861835969,0.0237134889534241,-36.4823
122,0.518327999999997,0.000341999999989184,-62.8600457025697,-62.8600457025697,-62.8600457025697,-0.13231853140799,0.00572514949533771,0.0238888070994292,-36.4823
123,0.518669999999986,0.000184999999987667,-62.8600455659726,-62.8600455659726,-62.8600455659726,-0.132318531081172,0.00572514937427848,0.0238250348890919,-36.4823
124,0.518854999999974,9.70000000393156e-05,-62.8600455659726,-62.8600455659726,-62.8600455659726,-0.132318531081172,0.00572514937427848,0.0238250348890919,-36.4823
125,0.518952000000013,9.49999999875217e-05,-63.3855554916027,-63.3855554916027,-63.3855554916027,-0.132339217304344,0.00571568112695087,0.023826747259854,-36.4823
126,0.519047,5.59999999723004e-05,-63.376440359829,-63.376440359829,-63.376440359829,-0.132339217304344,0.00571568112695087,0.023826747259854,-36.4823
127,0.519102999999973,0.000229000000047108,-64.110791544247,-64.110791544247,-64.110791544247,-0.13319756303807,0.00617251438016802,0.0240023458862192,-36.4823
128,0.51933200000002,9.49999999875217e-05,-64.11079141681,-64.11079141681,-64.11079141681,-0.133197562710271,0.0061725142587173,0.0239370310306837,-36.4823
129,0.519427000000007,9.69999999824722e-05,-64.4078416921289,-64.4078416921289,-64.4078416921289,-0.133203711909082,0.00616844447329529,0.0239375345007118,-36.4823
130,0.51952399999999,5.19999999823995e-05,-64.4023987042829,-64.4023987042829,-64.4023987042829,-0.133203711909082,0.00616844447329529,0.0239375345007118,-36.4823
131,0.519575999999972,0.00023700000002691,-65.1003462444769,-65.1003462444769,-65.1003462444769,-0.13405996467196,0.00662318410813195,0.0241127178215399,-36.4823
132,0.519812999999999,9.69999999824722e-05,-65.1003461250454,-65.1003461250454,-65.1003461250454,-0.134059964343714,0.00662318398652584,0.0240458787303167,-36.4823
133,0.519909999999982,9.39999999900465e-05,-65.2764852954496,-65.2764852954496,-65.2764852954496,-0.134062149985951,0.00662147163016459,0.024046098745857,-36.4823
134,0.520003999999972,5.60000000291438e-05,-65.2711160090517,-65.2711160090517,-65.2711160090517,-0.134062149985951,0.00662147163016459,0.024046098745857,-36.4823
135,0.520060000000001,0.00022999999998774,-65.9363054366676,-65.9363054366676,-65.9363054366676,-0.134915702238273,0.00707433877218147,0.0242207437434177,-36.4823
136,0.520289999999989,9.39999999900465e-05,-65.936305324342,-65.936305324342,-65.936305324342,-0.134915701909569,0.00707433865041488,0.0241523792483466,-36.4823
137,0.520383999999979,9.80000000367909e-05,-66.0488688703323,-66.0488688703323,-66.0488688703323,-0.13491706220509,0.00707382479013427,0.0241525879057951,-36.4823
138,0.520482000000015,5.09999999849242e-05,-66.0437573196418,-66.0437573196418,-66.0437573196418,-0.13491706220509,0.00707382479013427,0.0241525879057951,-36.4823
139,0.520533,0.000233999999977641,-66.6789763376263,-66.6789763376263,-66.6789763376263,-0.13576774367178,0.00752502402617916,0.0243266599814335,-36.4823
140,0.520766999999978,9.00000000001455e-05,-66.6789762317469,-66.6789762317469,-66.6789762317469,-0.135767743342626,0.00752502390425467,0.0242567699323317,-36.4823
141,0.520856999999978,0.000100000000031741,-66.7578584876077,-66.7578584876077,-66.7578584876077,-0.135769138133792,0.00752518612911312,0.0242570333261862,-36.4823
142,0.52095700000001,5.29999999798747e-05,-66.7529097507958,-66.7529097507958,-66.7529097507958,-0.135769138133792,0.00752518612911312,0.0242570333261862,-36.4823
143,0.52100999999999,0.000234000000034484,-67.3603299429887,-67.3603299429887,-67.3603299429887,-0.136616931290069,0.00797487000399297,0.0244305290312868,-36.4823
144,0.521244000000024,9.39999999900465e-05,-67.3603298430351,-67.3603298430351,-67.3603298430351,-0.136616930960462,0.00797486988190974,0.0243591126406951,-36.4823
145,0.521338000000014,9.29999999925712e-05,-67.4211604649651,-67.4211604649651,-67.4211604649651,-0.136618534905804,0.00797543282265572,0.0243594335985463,-36.4823
146,0.521431000000007,5.59999999723004e-05,-67.4162769624055,-67.4162769624055,-67.4162769624055,-0.136618534905804,0.00797543282265572,0.0243594335985463,-36.4823
147,0.521486999999979,0.000233000000037009,-67.9976554631414,-67.9976554631414,-67.9976554631414,-0.137463450338235,0.0084236946195773,0.0245323550242412,-36.4823
148,0.521720000000016,9.09999999976208e-05,-67.9976553686805,-67.9976553686805,-67.9976553686805,-0.137463450008175,0.00842369449733506,0.0244594116634005,-36.4823
149,0.521811000000014,9.89999999774227e-05,-68.048618008347,-68.048618008347,-68.048618008347,-0.137465248207669,0.00842449840028983,0.0244597771267916,-36.4823
150,0.521909999999991,5.09999999849242e-05,-68.0439566405327,-68.0439566405327,-68.0439566405327,-0.137465248207669,0.00842449840028983,0.0244597771267916,-36.4823
151,0.521960999999976,0.000236000000029435,-68.6007703479561,-68.6007703479561,-68.6007703479561,-0.138307283616329,0.00887138351589824,0.0246321235419148,-36.4823
152,0.522197000000006,9.49999999875217e-05,-68.6007702586138,-68.6007702586138,-68.6007702586138,-0.138307283285818,0.00887138339349783,0.0245576527442538,-36.4823
153,0.522291999999993,9.29999999925712e-05,-68.6460849341107,-68.6460849341107,-68.6460849341107,-0.138309222725936,0.00887233171397986,0.0245580487514021,-36.4823
154,0.522384999999986,5.60000000291438e-05,-68.6414824589726,-68.6414824589726,-68.6414824589726,-0.138309222725936,0.00887233171397986,0.0245580487514021,-36.4823
155,0.522441000000015,0.00023199999998269,-69.1750304878447,-69.1750304878447,-69.1750304878447,-0.139148359370613,0.00931785550133632,0.0247298160971068,-36.4823
156,0.522672999999998,0.082981000000018,-69.1750304032855,-69.1750304032855,-69.1750304032855,-0.139148359039649,0.00931785537877654,0.024653817013085,-36.4823
157,0.605654000000015,9.49999999875217e-05,-69.1750304032855,-69.1750304032855,-69.1750304032855,-0.139148359039649,0.00931785537877654,0.024653817013085,-36.4823
158,0.605749000000003,9.69999999824722e-05,-69.0312118504384,-69.0312118504384,-69.0312118504384,-0.139139217848782,0.00932674590773454,0.0246544035373768,-36.4823
159,0.605845999999985,5.30000000367181e-05,-68.2564779209599,-68.2564779209599,-68.2564779209599,-0.139139217848782,0.00932674590773454,0.0246544035373768,-36.4823
160,0.605899000000022,0.000347999999974036,-68.7958430309194,-68.7958430309194,-68.7958430309194,-0.140137861006103,0.00989890784123343,0.0248636646269807,-36.4823
161,0.606246999999996,0.000185999999985142,-68.7958429582234,-68.7958429582234,-68.7958429582234,-0.140137860659059,0.0098989077032599,0.0248062963272128,-36.4823
162,0.606432999999981,9.39999999900465e-05,-68.7958429582234,-68.7958429582234,-68.7958429582234,-0.140137860659059,0.0098989077032599,0.0248062963272128,-36.4823
163,0.606526999999971,9.40000000468899e-05,-69.0042800618371,-69.0042800618371,-69.0042800618371,-0.140145832217947,0.00989845136891309,0.0248059643536899,-36.4823
164,0.606621000000018,5.49999999748252e-05,-68.9972295246514,-68.9972295246514,-68.9972295246514,-0.140145832217947,0.00989845136891309,0.0248059643536899,-36.4823
165,0.606675999999993,0.000230999999985215,-69.5117267994681,-69.5117267994681,-69.5117267994681,-0.141143129766004,0.0104676228873878,0.0250149713869712,-36.4823
166,0.606906999999978,9.60000000418404e-05,-69.511726731079,-69.511726731079,-69.511726731079,-0.141143129418459,0.0104676227492204,0.0249565443777574,-36.4823
167,0.60700300000002,9.79999999799475e-05,-69.6388323709997,-69.6388323709997,-69.6388323709997,-0.141145641503881,0.0104660720474075,0.0249564696867313,-36.4823
168,0.607101,5.09999999849242e-05,-69.6346380061291,-69.6346380061291,-69.6346380061291,-0.141145641503881,0.0104660720474075,0.0249564696867313,-36.4823
169,0.607151999999985,0.000234000000034484,-70.1262122283544,-70.1262122283544,-70.1262122283544,-0.14213891024572,0.0110317041384681,0.0251646433389215,-36.4823
170,0.60738600000002,9.39999999900465e-05,-70.1262121637876,-70.1262121637876,-70.1262121637876,-0.142138909898022,0.0110317040002721,0.0251051534841006,-36.4823
171,0.60748000000001,9.29999999925712e-05,-70.2090982684895,-70.2090982684895,-70.2090982684895,-0.142140309264564,0.0110308070707319,0.0251052670365445,-36.4823
172,0.607573000000002,5.59999999723004e-05,-70.2050106469863,-70.2050106469863,-70.2050106469863,-0.142140309264564,0.0110308070707319,0.0251052670365445,-36.4823
173,0.607628999999974,0.000229000000047108,-70.675586982561,-70.675586982561,-70.675586982561,-0.143129242020828,0.0115933710629378,0.0253125436162864,-36.4823
174,0.607858000000022,9.5999999984997e-05,-70.6755869214634,-70.6755869214634,-70.6755869214634,-0.143129241672968,0.0115933709247092,0.0252519913813648,-36.4823
175,0.607954000000007,9.99999999748979e-05,-70.734775731107,-70.734775731107,-70.734775731107,-0.143130691022548,0.0115932525831964,0.0252522412156963,-36.4823
176,0.608053999999981,5.10000000417676e-05,-70.7308243714777,-70.7308243714777,-70.7308243714777,-0.143130691022548,0.0115932525831964,0.0252522412156963,-36.4823
177,0.608105000000023,0.000235999999972591,-71.1818479869201,-71.1818479869201,-71.1818479869201,-0.144115211427526,0.0121530541621126,0.0254586042159214,-36.4823
178,0.608340999999996,9.00000000001455e-05,-71.1818479290276,-71.1818479290276,-71.1818479290276,-0.144115211079512,0.0121530540238552,0.0253969903449088,-36.4823
179,0.608430999999996,9.69999999824722e-05,-71.2281377900143,-71.2281377900143,-71.2281377900143,-0.144116949307471,0.0121535221813498,0.0253973384856523,-36.4823
180,0.608527999999978,5.10000000417676e-05,-71.2242683954258,-71.2242683954258,-71.2242683954258,-0.144116949307471,0.0121535221813498,0.0253973384856523,-36.4823
181,0.60857900000002,0.000233999999977641,-71.6569002376758,-71.6569002376758,-71.6569002376758,-0.145097079579324,0.0127107691706311,0.0256027928200075,-36.4823
182,0.608812999999998,9.5999999984997e-05,-71.6569001827687,-71.6569001827687,-71.6569001827687,-0.14509707923114,0.0127107690323365,0.0255401174673714,-36.4823
183,0.608908999999983,0.000102000000026692,-71.6960107597019,-71.6960107597019,-71.6960107597019,-0.145099085588645,0.0127116236951504,0.025540533216214,-36.4823
184,0.60901100000001,5.09999999849242e-05,-71.6922362744877,-71.6922362744877,-71.6922362744877,-0.145099085588645,0.0127116236951504,0.025540533216214,-36.4823
185,0.609061999999994,0.000232999999980166,-72.1074632429531,-72.1074632429531,-72.1074632429531,-0.146074804852842,0.0132664034173475,0.0257450734083448,-36.4823
186,0.609294999999975,9.00000000001455e-05,-72.1074631908432,-72.1074631908432,-72.1074631908432,-0.146074804504505,0.0132664032790235,0.0256813379484724,-36.4823
187,0.609384999999975,9.80000000367909e-05,-72.1424083085778,-72.1424083085778,-72.1424083085778,-0.146077005508635,0.0132674971377453,0.0256817979748943,-36.4823
188,0.609483000000012,5.09999999849242e-05,-72.1387481940731,-72.1387481940731,-72.1387481940731,-0.146077005508635,0.0132674971377453,0.0256817979748943,-36.4823
189,0.609533999999996,0.000232999999980166,-72.537445982909,-72.537445982909,-72.537445982909,-0.147048312097605,0.0138198675951908,0.0258854237708521,-36.4823
190,0.609766999999977,9.50000000443652e-05,-72.5374459334231,-72.5374459334231,-72.5374459334231,-0.147048311749097,0.013819867456829,0.0258206279559871,-36.4823
191,0.609862000000021,9.49999999875217e-05,-72.5698272674836,-72.5698272674836,-72.5698272674836,-0.147050639867177,0.0138211040863433,0.0258211156994968,-36.4823
192,0.609957000000009,5.69999999697757e-05,-72.5662543845605,-72.5662543845605,-72.5662543845605,-0.147050639867177,0.0138211040863433,0.0258211156994968,-36.4823
193,0.610013999999978,0.00023500000003196,-72.9492233200505,-72.9492233200505,-72.9492233200505,-0.148017474094432,0.0143710571201912,0.0260238135637692,-36.4823
194,0.61024900000001,0.0716350000000148,-72.9492232730323,-72.9492232730323,-72.9492232730323,-0.148017473745767,0.0143710569817985,0.0259579587115297,-36.4823
195,0.681884000000025,9.5999999984997e-05,-72.9492232730323,-72.9492232730323,-72.9492232730323,-0.148017473745767,0.0143710569817985,0.0259579587115297,-36.4823
196,0.68198000000001,9.69999999824722e-05,-72.8813154854004,-72.8813154854004,-72.8813154854004,-0.14801557381531,0.0143870717080786,0.0259578761246023,-36.4823
197,0.682076999999992,5.60000000291438e-05,-72.388761770137,-72.388761770137,-72.388761770137,-0.14801557381531,0.0143870717080786,0.0259578761246023,-36.4823
198,0.682133000000022,0.000336000000004333,-72.7716569847375,-72.7716569847375,-72.7716569847375,-0.149114243785917,0.0150409234290571,0.0261925126499805,-36.4823
199,0.682469000000026,0.000190999999972519,-72.7716569256058,-72.7716569256058,-72.7716569256058,-0.149114243275509,0.0150409232177992,0.0261158015649011,-36.4823
200,0.682659999999998,9.00000000001455e-05,-72.7716569256058,-72.7716569256058,-72.7716569256058,-0.149114243275509,0.0150409232177992,0.0261158015649011,-36.4823
201,0.682749999999999,9.79999999799475e-05,-72.9273834717263,-72.9273834717263,-72.9273834717263,-0.149116554381919,0.0150413115592571,0.0261146618252141,-36.4823
202,0.682847999999979,5.30000000367181e-05,-72.9222426028039,-72.9222426028039,-72.9222426028039,-0.149116554381919,0.0150413115592571,0.0261146618252141,-36.4823
203,0.682901000000015,0.000237999999967542,-73.2878792032173,-73.2878792032173,-73.2878792032173,-0.150211380366564,0.0156913318355613,0.0263485207798728,-36.4823
204,0.683138999999983,9.39999999900465e-05,-73.2878791473104,-73.2878791473104,-73.2878791473104,-0.150211379855169,0.0156913316239292,0.0262705727903563,-36.4823
205,0.683232999999973,9.40000000468899e-05,-73.3843244406341,-73.3843244406341,-73.3843244406341,-0.15021169668633,0.0156901404942061,0.0262701582175654,-36.4823
206,0.68332700000002,5.49999999748252e-05,-73.381180951447,-73.381180951447,-73.381180951447,-0.15021169668633,0.0156901404942061,0.0262701582175654,-36.4823
207,0.683381999999995,0.00023199999998269,-73.7313398398652,-73.7313398398652,-73.7313398398652,-0.151300473383811,0.0163357022294791,0.026502742687021,-36.4823
208,0.683613999999977,9.50000000443652e-05,-73.7313397868042,-73.7313397868042,-73.7313397868042,-0.151300472872018,0.0163357020177454,0.0264235783151556,-36.4823
209,0.683709000000022,9.69999999824722e-05,-73.7953411959358,-73.7953411959358,-73.7953411959358,-0.151300989108108,0.0163350132303987,0.0264235493002973,-36.4823
210,0.683806000000004,5.19999999823995e-05,-73.7923202092544,-73.7923202092544,-73.7923202092544,-0.151300989108108,0.0163350132303987,0.0264235493002973,-36.4823
211,0.683857999999987,0.000240000000019336,-74.1283973438553,-74.1283973438553,-74.1283973438553,-0.152383570107385,0.0169764911246601,0.0266548239534353,-36.4823
212,0.684098000000006,9.39999999900465e-05,-74.1283972933789,-74.1283972933789,-74.1283972933789,-0.152383569595203,0.0169764909128271,0.0265744431351189,-36.4823
213,0.684191999999996,9.29999999925712e-05,-74.1748517089402,-74.1748517089402,-74.1748517089402,-0.15238469607095,0.0169765444227913,0.0265746449056177,-36.4823
214,0.684284999999988,5.60000000291438e-05,-74.1718612925377,-74.1718612925377,-74.1718612925377,-0.15238469607095,0.0169765444227913,0.0265746449056177,-36.4823
215,0.684341000000018,0.000232999999980166,-74.4948264691975,-74.4948264691975,-74.4948264691975,-0.153461145869397,0.0176142326487649,0.0268046216515022,-36.4823
216,0.684573999999998,9.39999999900465e-05,-74.4948264211187,-74.4948264211187,-74.4948264211187,-0.153461145356805,0.0176142324368226,0.0267230234378357,-36.4823
217,0.684667999999988,9.80000000367909e-05,-74.5316647411086,-74.5316647411086,-74.5316647411086,-0.153462824297154,0.0176148707666606,0.0267233721454141,-36.4823
218,0.684766000000025,5.09999999849242e-05,-74.5287886727949,-74.5287886727949,-74.5287886727949,-0.153462824297154,0.0176148707666606,0.0267233721454141,-36.4823
219,0.68481700000001,0.000237999999967542,-74.8393845880811,-74.8393845880811,-74.8393845880811,-0.154533196018183,0.0182489353683762,0.026952060137233,-36.4823
220,0.685054999999977,9.00000000001455e-05,-74.839384542252,-74.839384542252,-74.839384542252,-0.154533195505197,0.018248935156331,0.0268692447508561,-36.4823
221,0.685144999999977,9.70000000393156e-05,-74.8707827177977,-74.8707827177977,-74.8707827177977,-0.154535274759814,0.0182499654904864,0.0268696870087992,-36.4823
222,0.685242000000017,5.59999999723004e-05,-74.8679690083631,-74.8679690083631,-74.8679690083631,-0.154535274759814,0.0182499654904864,0.0268696870087992,-36.4823
223,0.685297999999989,0.00022999999998774,-75.166819047489,-75.166819047489,-75.166819047489,-0.155599613963411,0.0188805089142541,0.0270970950883606,-36.4823
224,0.685527999999977,9.40000000468899e-05,-75.1668190037795,-75.1668190037795,-75.1668190037795,-0.155599613450018,0.0188805087021004,0.0270130618522753,-36.4823
225,0.685622000000023,9.79999999799475e-05,-75.1950306309366,-75.1950306309366,-75.1950306309366,-0.155601955425558,0.0188817833861193,0.0270135622716372,-36.4823
226,0.685720000000003,5.09999999849242e-05,-75.1922826967343,-75.1922826967343,-75.1922826967343,-0.155601955425558,0.0188817833861193,0.0270135622716372,-36.4823
227,0.685770999999988,0.000238000000024385,-75.4799399943215,-75.4799399943215,-75.4799399943215,-0.15666024763106,0.0195088340874338,0.0272396859593177,-36.4823
228,0.686009000000013,9.00000000001455e-05,-75.4799399526143,-75.4799399526143,-75.4799399526143,-0.156660247117278,0.0195088338751785,0.0271544351730582,-36.4823
229,0.686099000000013,9.69999999824722e-05,-75.5061710497787,-75.5061710497787,-75.5061710497787,-0.156662750639138,0.0195102539015749,0.0271549705051558,-36.4823
230,0.686195999999995,5.19999999823995e-05,-75.5034863877273,-75.5034863877273,-75.5034863877273,-0.156662750639138,0.0195102539015749,0.0271549705051558,-36.4823
231,0.686247999999978,0.000236000000029435,-75.7804587915539,-75.7804587915539,-75.7804587915539,-0.157714978898813,0.0201338248854706,0.0273798059936539,-36.4823
232,0.686484000000007,0.0746009999999728,-75.7804587517385,-75.7804587517385,-75.7804587517385,-0.157714978384623,0.0201338246731057,0.0272933369160429,-36.4823
233,0.76108499999998,9.50000000443652e-05,-75.7804587517385,-75.7804587517385,-75.7804587517385,-0.157714978384623,0.0201338246731057,0.0272933369160429,-36.4823
234,0.761180000000024,9.29999999925712e-05,-76.5774621548367,-76.5774621548367,-76.5774621548367,-0.157775901732022,0.020073315694388,0.0272966041305923,-36.4823
235,0.761273000000017,5.59999999723004e-05,-76.1723349913303,-76.1723349913303,-76.1723349913303,-0.157775901732022,0.020073315694388,0.0272966041305923,-36.4823
236,0.761328999999989,0.000336000000004333,-76.4346033997794,-76.4346033997794,-76.4346033997794,-0.158952863282402,0.020796601623107,0.0275526084390159,-36.4823
237,0.761664999999994,0.000183999999990192,-76.4346033492698,-76.4346033492698,-76.4346033492698,-0.158952862501106,0.0207966012896479,0.0274450644635289,-36.4823
238,0.761848999999984,9.70000000393156e-05,-76.4346033492698,-76.4346033492698,-76.4346033492698,-0.158952862501106,0.0207966012896479,0.0274450644635289,-36.4823
239,0.761946000000023,9.99999999748979e-05,-77.0255849653538,-77.0255849653538,-77.0255849653538,-0.158987793192678,0.0207814233111549,0.0274479089189541,-36.4823
240,0.762045999999998,5.09999999849242e-05,-77.0215397659612,-77.0215397659612,-77.0215397659612,-0.158987793192678,0.0207814233111549,0.0274479089189541,-36.4823
241,0.762096999999983,0.000234000000034484,-77.2641059942258,-77.2641059942258,-77.2641059942258,-0.160162445610972,0.0215017037273556,0.0277035032299498,-36.4823
242,0.762331000000017,9.49999999875217e-05,-77.2641059478761,-77.2641059478761,-77.2641059478761,-0.160162444828405,0.0215017033934363,0.0275944769547521,-36.4823
243,0.762426000000005,9.29999999925712e-05,-77.5865218550216,-77.5865218550216,-77.5865218550216,-0.160169286575711,0.0214939523849581,0.0275945991997879,-36.4823
244,0.762518999999998,5.49999999748252e-05,-77.5840456718343,-77.5840456718343,-77.5840456718343,-0.160169286575711,0.0214939523849581,0.0275945991997879,-36.4823
245,0.762573999999972,0.000230000000044583,-77.811532916715,-77.811532916715,-77.811532916715,-0.161336289488232,0.0222086551656387,0.0278485721934767,-36.4823
246,0.762804000000017,9.69999999824722e-05,-77.8115328734734,-77.8115328734734,-77.8115328734734,-0.16133628870519,0.0222086548316319,0.0277380976452175,-36.4823
247,0.762900999999999,9.89999999774227e-05,-77.9923144246952,-77.9923144246952,-77.9923144246952,-0.161336360441576,0.0222045583646058,0.0277377309749085,-36.4823
248,0.762999999999977,5.40000000341934e-05,-77.9899186975896,-77.9899186975896,-77.9899186975896,-0.161336360441576,0.0222045583646058,0.0277377309749085,-36.4823
249,0.763054000000011,0.000233999999977641,-78.2054890850806,-78.2054890850806,-78.2054890850806,-0.16249468325139,0.0229135133646937,0.0279898373202456,-36.4823
250,0.763287999999989,9.00000000001455e-05,-78.2054890443126,-78.2054890443126,-78.2054890443126,-0.16249468246788,0.0229135130305982,0.0278779146780517,-36.4823
251,0.763377999999989,9.80000000367909e-05,-78.3118271208164,-78.3118271208164,-78.3118271208164,-0.162494098525143,0.0229115959984546,0.0278776855535724,-36.4823
252,0.763476000000026,5.49999999748252e-05,-78.3094734726696,-78.3094734726696,-78.3094734726696,-0.162494098525143,0.0229115959984546,0.0278776855535724,-36.4823
253,0.763531,0.00023199999998269,-78.5151311330617,-78.5151311330617,-78.5151311330617,-0.16364376278894,0.0236150733612606,0.0281279194168944,-36.4823
254,0.763762999999983,9.50000000443652e-05,-78.5151310943816,-78.5151310943816,-78.5151310943816,-0.163643762004921,0.0236150730270534,0.0280145478315719,-36.4823
255,0.763858000000027,9.99999999748979e-05,-78.5822173658793,-78.5822173658793,-78.5822173658793,-0.163643956370255,0.0236145472733019,0.0280145657774721,-36.4823
256,0.763958000000002,5.29999999798747e-05,-78.5798990979713,-78.5798990979713,-78.5798990979713,-0.163643956370255,0.0236145472733019,0.0280145657774721,-36.4823
257,0.764010999999982,0.000234000000034484,-78.77693326496,-78.77693326496,-78.77693326496,-0.164785202758942,0.0243128292824517,0.0282629729860394,-36.4823
258,0.764245000000017,9.00000000001455e-05,-78.7769332281214,-78.7769332281214,-78.7769332281214,-0.164785201974426,0.024312828948137,0.0281481525923959,-36.4823
259,0.764335000000017,9.79999999799475e-05,-78.8232512450917,-78.8232512450917,-78.8232512450917,-0.164786274820908,0.0243131936161776,0.0281483820360706,-36.4823
260,0.764432999999997,5.09999999849242e-05,-78.8209953082026,-78.8209953082026,-78.8209953082026,-0.164786274820908,0.0243131936161776,0.0281483820360706,-36.4823
261,0.764483999999982,0.000233000000037009,-79.0102668703897,-79.0102668703897,-79.0102668703897,-0.165919364519341,0.0250065159199872,0.0283950164759455,-36.4823
262,0.764717000000019,9.49999999875217e-05,-79.0102668352226,-79.0102668352226,-79.0102668352226,-0.165919363734308,0.0250065155855542,0.0282787469352187,-36.4823
263,0.764812000000006,9.49999999875217e-05,-79.0454536754051,-79.0454536754051,-79.0454536754051,-0.165921106537484,0.0250074397926743,0.0282791268228336,-36.4823
264,0.764906999999994,5.60000000291438e-05,-79.043243732412,-79.043243732412,-79.043243732412,-0.165921106537484,0.0250074397926743,0.0282791268228336,-36.4823
265,0.764963000000023,0.000230999999985215,-79.2253618167792,-79.2253618167792,-79.2253618167792,-0.167046193882249,0.0256959337049862,0.0285240195706328,-36.4823
266,0.765194000000008,9.49999999875217e-05,-79.2253617831574,-79.2253617831574,-79.2253617831574,-0.167046193096719,0.0256959333704437,0.0284063009590952,-36.4823
267,0.765288999999996,9.69999999824722e-05,-79.2545079639854,-79.2545079639854,-79.2545079639854,-0.16704838438887,0.0256972008346313,0.0284067790849516,-36.4823
268,0.765385999999978,5.10000000417676e-05,-79.2523422956327,-79.2523422956327,-79.2523422956327,-0.16704838438887,0.0256972008346313,0.0284067790849516,-36.4823
269,0.76543700000002,0.000236999999970067,-79.4277660538456,-79.4277660538456,-79.4277660538456,-0.168165571285212,0.0263809506283898,0.0286499514114773,-36.4823
270,0.76567399999999,0.0726579999999899,-79.4277660216678,-79.4277660216678,-79.4277660216678,-0.168165570499173,0.026380950293731,0.0285307834622397,-36.4823
271,0.83833199999998,9.09999999976208e-05,-79.4277660216678,-79.4277660216678,-79.4277660216678,-0.168165570499173,0.026380950293731,0.0285307834622397,-36.4823
272,0.838422999999977,9.70000000393156e-05,-79.5596952466011,-79.5596952466011,-79.5596952466011,-0.168175829105839,0.0263642863292091,0.0285322570750901,-36.4823
273,0.838520000000017,5.59999999723004e-05,-79.2006096200677,-79.2006096200677,-79.2006096200677,-0.168175829105839,0.0263642863292091,0.0285322570750901,-36.4823
274,0.838575999999989,0.000340999999991709,-79.3746250748928,-79.3746250748928,-79.3746250748928,-0.169406926091677,0.0271388864925913,0.0288043416467979,-36.4823
275,0.838916999999981,0.000190000000031887,-79.374625040147,-79.374625040147,-79.374625040147,-0.169406925137791,0.0271388860761112,0.0286818194492459,-36.4823
276,0.839107000000013,9.49999999875217e-05,-79.374625040147,-79.374625040147,-79.374625040147,-0.169406925137791,0.0271388860761112,0.0286818194492459,-36.4823
277,0.839202,9.79999999799475e-05,-79.6014781661719,-79.6014781661719,-79.6014781661719,-0.169422662736822,0.0271331491474782,0.0286832172339868,-36.4823
278,0.83929999999998,5.10000000417676e-05,-79.5977188112753,-79.5977188112753,-79.5977188112753,-0.169422662736822,0.0271331491474782,0.0286832172339868,-36.4823
279,0.839351000000022,0.000232999999980166,-79.7624263325321,-79.7624263325321,-79.7624263325321,-0.170648175517805,0.0279028475408566,0.0289541584210231,-36.4823
280,0.839584000000002,9.09999999976208e-05,-79.7624262998638,-79.7624262998638,-79.7624262998638,-0.170648174562927,0.0279028471240482,0.0288302287120618,-36.4823
281,0.839675,9.69999999824722e-05,-79.891789219477,-79.891789219477,-79.891789219477,-0.17065262439766,0.0279000492312564,0.0288306378750812,-36.4823
282,0.839771999999982,5.60000000291438e-05,-79.8895496376259,-79.8895496376259,-79.8895496376259,-0.17065262439766,0.0279000492312564,0.0288306378750812,-36.4823
283,0.839828000000011,0.000232999999980166,-80.0465800052765,-80.0465800052765,-80.0465800052765,-0.17186928520601,0.0286634067330316,0.0290996615262348,-36.4823
284,0.840060999999992,9.39999999900465e-05,-80.0465799742934,-80.0465799742934,-80.0465799742934,-0.171869284250897,0.0286634063162589,0.0289743446274249,-36.4823
285,0.840154999999982,9.80000000367909e-05,-80.1239394331731,-80.1239394331731,-80.1239394331731,-0.171871003955804,0.0286623087562739,0.0289745792441851,-36.4823
286,0.840253000000018,5.19999999823995e-05,-80.1217085056253,-80.1217085056253,-80.1217085056253,-0.171871003955804,0.0286623087562739,0.0289745792441851,-36.4823
287,0.840305000000001,0.000232999999980166,-80.2722039456191,-80.2722039456191,-80.2722039456191,-0.173078206768799,0.0294193491857907,0.0292415309001053,-36.4823
288,0.840537999999981,9.00000000001455e-05,-80.2722039160774,-80.2722039160774,-80.2722039160774,-0.173078205813446,0.0294193487690497,0.0291148272925692,-36.4823
289,0.840627999999981,9.80000000367909e-05,-80.3220594353936,-80.3220594353936,-80.3220594353936,-0.173079681588539,0.0294193445254359,0.0291151237829809,-36.4823
290,0.840726000000018,5.09999999849242e-05,-80.3199006110631,-80.3199006110631,-80.3199006110631,-0.173079681588539,0.0294193445254359,0.0291151237829809,-36.4823
291,0.840777000000003,0.000238000000024385,-80.4645979832198,-80.4645979832198,-80.4645979832198,-0.174277335114567,0.0301702316121441,0.0293799718611316,-36.4823
292,0.841015000000027,9.39999999900465e-05,-80.4645979549649,-80.4645979549649,-80.4645979549649,-0.174277334158969,0.0301702311954307,0.0292518819522487,-36.4823
293,0.841109000000017,9.29999999925712e-05,-80.4997973297785,-80.4997973297785,-80.4997973297785,-0.174279157017866,0.0301709425816664,0.0292522835310329,-36.4823
294,0.84120200000001,5.59999999723004e-05,-80.4976407382605,-80.4976407382605,-80.4976407382605,-0.174279157017866,0.0301709425816664,0.0292522835310329,-36.4823
295,0.841257999999982,0.000228999999990265,-80.6370405247998,-80.6370405247998,-80.6370405247998,-0.175467314662636,0.0309158296719632,0.0295150334697595,-36.4823
296,0.841486999999972,9.70000000393156e-05,-80.6370404977252,-80.6370404977252,-80.6370404977252,-0.17546731370679,0.0309158292552744,0.0293855578583244,-36.4823
297,0.841584000000012,9.79999999799475e-05,-80.6643674924945,-80.6643674924945,-80.6643674924945,-0.175469521587005,0.0309169998138956,0.029386049720075,-36.4823
298,0.841681999999992,5.19999999823995e-05,-80.66227471292,-80.66227471292,-80.66227471292,-0.175469521587005,0.0309169998138956,0.029386049720075,-36.4823
299,0.841733999999974,0.00023500000003196,-80.7967370207271,-80.7967370207271,-80.7967370207271,-0.176648240901152,0.031655986503176,0.0296467103293833,-36.4823
300,0.841969000000006,9.89999999774227e-05,-80.796736994753,-80.796736994753,-80.796736994753,-0.176648239945067,0.0316559860865155,0.0295158498487642,-36.4823
301,0.842067999999983,9.29999999925712e-05,-80.8197417292273,-80.8197417292273,-80.8197417292273,-0.176650738437403,0.0316574415967715,0.0295164057351063,-36.4823
302,0.842160999999976,5.60000000291438e-05,-80.8176456026193,-80.8176456026193,-80.8176456026193,-0.176650738437403,0.0316574415967715,0.0295164057351063,-36.4823
303,0.842217000000005,0.000228999999990265,-80.9474500005054,-80.9474500005054,-80.9474500005054,-0.177820072972355,0.0323905979077957,0.0297749873570818,-36.4823
304,0.842445999999995,9.39999999900465e-05,-80.947449975566,-80.947449975566,-80.947449975566,-0.177820072016001,0.0323905974911479,0.0296427418222639,-36.4823
305,0.842539999999985,9.80000000367909e-05,-80.9680265013286,-80.9680265013286,-80.9680265013286,-0.177822760365378,0.0323922234094572,0.0296433386374197,-36.4823
306,0.842638000000022,5.19999999823995e-05,-80.9660165587256,-80.9660165587256,-80.9660165587256,-0.177822760365378,0.0323922234094572,0.0296433386374197,-36.4823
307,0.842690000000005,0.000237999999967542,-81.0913915856062,-81.0913915856062,-81.0913915856062,-0.178982708211461,0.0331195650778746,0.0298998392858855,-36.4823
308,0.842927999999972,0.075445000000002,-81.0913915616461,-81.0913915616461,-81.0913915616461,-0.178982707254848,0.0331195646612431,0.0297662095031037,-36.4823
309,0.918372999999974,9.09999999976208e-05,-81.0913915616461,-81.0913915616461,-81.0913915616461,-0.178982707254848,0.0331195646612431,0.0297662095031037,-36.4823
310,0.918463999999972,9.80000000367909e-05,-80.7127915211497,-80.7127915211497,-80.7127915211497,-0.17894594943771,0.0331591186319698,0.0297650208449907,-36.4823
311,0.918562000000009,5.49999999748252e-05,-80.3857484400882,-80.3857484400882,-80.3857484400882,-0.17894594943771,0.0331591186319698,0.0297650208449907,-36.4823
312,0.918616999999983,0.000341999999989184,-80.5153050900876,-80.5153050900876,-80.5153050900876,-0.180198960500463,0.0339627317828789,0.0300467927794687,-36.4823
313,0.918958999999973,0.000190000000031887,-80.5153050662083,-80.5153050662083,-80.5153050662083,-0.180198959489372,0.0339627313332586,0.0299249231491999,-36.4823
314,0.919149000000004,9.49999999875217e-05,-80.5153050662083,-80.5153050662083,-80.5153050662083,-0.180198959489372,0.0339627313332586,0.0299249231491999,-36.4823
315,0.919243999999992,9.69999999824722e-05,-80.4582363266583,-80.4582363266583,-80.4582363266583,-0.180190064526743,0.0339658565737476,0.0299228469126428,-36.4823
316,0.919340999999974,5.20000000392429e-05,-80.4549233504491,-80.4549233504491,-80.4549233504491,-0.180190064526743,0.0339658565737476,0.0299228469126428,-36.4823
317,0.919393000000014,0.000232999999980166,-80.5812005762738,-80.5812005762738,-80.5812005762738,-0.181432877683428,0.0347615603245912,0.0302024260736264,-36.4823
318,0.919625999999994,9.09999999976208e-05,-80.5812005531486,-80.5812005531486,-80.5812005531486,-0.18143287667175,0.0347615598748318,0.0300793716264727,-36.4823
319,0.919716999999991,9.69999999824722e-05,-80.5596483826654,-80.5596483826654,-80.5596483826654,-0.181431989694016,0.0347626735214687,0.0300791904033934,-36.4823
320,0.919813999999974,5.60000000291438e-05,-80.5576711065005,-80.5576711065005,-80.5576711065005,-0.181431989694016,0.0347626735214687,0.0300791904033934,-36.4823
321,0.919870000000003,0.000235999999972591,-80.6805913628706,-80.6805913628706,-80.6805913628706,-0.18266396258105,0.0355506662466224,0.0303563737076773,-36.4823
322,0.920105999999976,9.40000000468899e-05,-80.6805913404912,-80.6805913404912,-80.6805913404912,-0.182663961569374,0.0355506657970137,0.0302321410365753,-36.4823
323,0.920200000000023,9.79999999799475e-05,-80.6768300799425,-80.6768300799425,-80.6768300799425,-0.182665720037819,0.0355517986052676,0.0302325691095038,-36.4823
324,0.920298000000003,5.09999999849242e-05,-80.6748424265351,-80.6748424265351,-80.6748424265351,-0.182665720037819,0.0355517986052676,0.0302325691095038,-36.4823
325,0.920348999999987,0.000234000000034484,-80.7943535035105,-80.7943535035105,-80.7943535035105,-0.18388706048371,0.0363326073120457,0.0305073828203064,-36.4823
326,0.920583000000022,9.00000000001455e-05,-80.7943534818737,-80.7943534818737,-80.7943534818737,-0.183887059472022,0.0363326068625782,0.0303819725543346,-36.4823
327,0.920673000000022,9.79999999799475e-05,-80.799689450442,-80.799689450442,-80.799689450442,-0.183889694972885,0.0363340299050702,0.0303825909061519,-36.4823
328,0.920771000000002,5.09999999849242e-05,-80.7977727487001,-80.7977727487001,-80.7977727487001,-0.183889694972885,0.0363340299050702,0.0303825909061519,-36.4823
329,0.920821999999987,0.000238000000024385,-80.9138310601179,-80.9138310601179,-80.9138310601179,-0.185100451101868,0.0371078990789327,0.0306550336543844,-36.4823
330,0.921060000000011,9.39999999900465e-05,-80.9138310392184,-80.9138310392184,-80.9138310392184,-0.185100450090165,0.0371078986296036,0.0305284464876835,-36.4823
331,0.921154000000001,9.39999999900465e-05,-80.9236976811797,-80.9236976811797,-80.9236976811797,-0.185103369890566,0.037109544218511,0.0305291201146557,-36.4823
332,0.921247999999991,5.50000000316686e-05,-80.9217779019932,-80.9217779019932,-80.9217779019932,-0.185103369890566,0.037109544218511,0.0305291201146557,-36.4823
333,0.921303000000023,0.000228999999990265,-81.0343818896013,-81.0343818896013,-81.0343818896013,-0.186303521865378,0.0378765769409944,0.0307991803941895,-36.4823
334,0.921532000000013,9.49999999875217e-05,-81.0343818694268,-81.0343818694268,-81.0343818694268,-0.186303520853659,0.037876576491801,0.0306714177036282,-36.4823
335,0.921627000000001,9.79999999799475e-05,-81.0464482215009,-81.0464482215009,-81.0464482215009,-0.186306517235571,0.0378783480608534,0.0306721020884284,-36.4823
336,0.921724999999981,5.10000000417676e-05,-81.0445883150885,-81.0445883150885,-81.0445883150885,-0.186306517235571,0.0378783480608534,0.0306721020884284,-36.4823
337,0.921776000000023,0.000236999999970067,-81.1537744629155,-81.1537744629155,-81.1537744629155,-0.187496010551085,0.0386385707650958,0.0309397631084202,-36.4823
338,0.922012999999993,9.49999999875217e-05,-81.1537744434482,-81.1537744434482,-81.1537744434482,-0.187496009539355,0.0386385703160389,0.0308108256842369,-36.4823
339,0.92210799999998,9.29999999925712e-05,-81.1667992501423,-81.1667992501423,-81.1667992501423,-0.187499008338837,0.0386404013953692,0.0308115064906613,-36.4823
340,0.922200999999973,5.60000000291438e-05,-81.1649354100517,-81.1649354100517,-81.1649354100517,-0.187499008338837,0.0386404013953692,0.0308115064906613,-36.4823
341,0.922257000000002,0.00022999999998774,-81.270770375157,-81.270770375157,-81.270770375157,-0.188677798963707,0.0393938204361047,0.0310767565416389,-36.4823
342,0.92248699999999,9.39999999900465e-05,-81.2707703563743,-81.2707703563743,-81.2707703563743,-0.188677797951942,0.0393938199871713,0.0309466450529378,-36.4823
343,0.92258099999998,9.80000000367909e-05,-81.284165559508,-81.284165559508,-81.284165559508,-0.188680773560168,0.0393956724448684,0.0309473181484846,-36.4823
344,0.922679000000016,5.09999999849242e-05,-81.2823589428499,-81.2823589428499,-81.2823589428499,-0.188680773560168,0.0393956724448684,0.0309473181484846,-36.4823
345,0.922730000000001,0.000239000000021861,-81.3849267028044,-81.3849267028044,-81.3849267028044,-0.189848796005559,0.0401422620310917,0.0312101404855145,-36.4823
346,0.922969000000023,0.165796,-81.3849266846824,-81.3849266846824,-81.3849266846824,-0.18984879499377,0.0401422615822856,0.0310788559224149,-36.4823
347,1.08876500000002,9.00000000001455e-05,-81.3849266846824,-81.3849266846824,-81.3849266846824,-0.18984879499377,0.0401422615822856,0.0310788559224149,-36.4823
348,1.08885500000002,9.89999999774227e-05,-81.2200330209079,-81.2200330209079,-81.2200330209079,-0.189627920483448,0.0399821960704602,0.0310859618417568,-36.4823
349,1.088954,5.49999999748252e-05,-80.515472332248,-80.515472332248,-80.515472332248,-0.189627920483448,0.0399821960704602,0.0310859618417568,-36.4823
350,1.08900899999998,0.000343000000043503,-80.629035949462,-80.629035949462,-80.629035949462,-0.191042374587805,0.0409204654512855,0.0314159214365033,-36.4823
351,1.08935200000002,0.000185999999985142,-80.6290359147477,-80.6290359147477,-80.6290359147477,-0.191042372461195,0.040920464476933,0.0312032517136182,-36.4823
352,1.089538,9.5999999984997e-05,-80.6290359147477,-80.6290359147477,-80.6290359147477,-0.191042372461195,0.040920464476933,0.0312032517136182,-36.4823
353,1.08963399999999,9.69999999824722e-05,-80.8643539721556,-80.8643539721556,-80.8643539721556,-0.19112977998778,0.0408626818574754,0.031213727256429,-36.4823
354,1.08973099999997,5.10000000417676e-05,-80.8610967085328,-80.8610967085328,-80.8610967085328,-0.19112977998778,0.0408626818574754,0.031213727256429,-36.4823
355,1.08978200000001,0.000236999999970067,-80.9685696033516,-80.9685696033516,-80.9685696033516,-0.192536447855715,0.041789715833117,0.0315426073113914,-36.4823
356,1.09001899999998,9.00000000001455e-05,-80.968569570755,-80.968569570755,-80.968569570755,-0.192536445729867,0.0417897148593346,0.0313283611281328,-36.4823
357,1.09010899999998,9.80000000367909e-05,-81.0995628060654,-81.0995628060654,-81.0995628060654,-0.19256222649257,0.0417693836637545,0.0313318507234181,-36.4823
358,1.09020700000002,5.09999999849242e-05,-81.0976028548104,-81.0976028548104,-81.0976028548104,-0.19256222649257,0.0417693836637545,0.0313318507234181,-36.4823
359,1.09025800000001,0.000232999999980166,-81.2000446918877,-81.2000446918877,-81.2000446918877,-0.193956219519636,0.0426846853656302,0.0316581618880038,-36.4823
360,1.09049099999999,9.49999999875217e-05,-81.2000446609464,-81.2000446609464,-81.2000446609464,-0.193956217395049,0.0426846843927381,0.0314423172295591,-36.4823
361,1.09058599999997,9.20000000519394e-05,-81.2758492081837,-81.2758492081837,-81.2758492081837,-0.193964229246086,0.0426771275557839,0.0314436580488741,-36.4823
362,1.09067800000003,5.59999999723004e-05,-81.2739065538023,-81.2739065538023,-81.2739065538023,-0.193964229246086,0.0426771275557839,0.0314436580488741,-36.4823
363,1.090734,0.000234999999975116,-81.3721283106791,-81.3721283106791,-81.3721283106791,-0.195344270838108,0.0435814267704383,0.0317669075400785,-36.4823
364,1.09096899999997,9.40000000468899e-05,-81.3721282811124,-81.3721282811124,-81.3721282811124,-0.195344268714793,0.0435814257984554,0.0315494687426866,-36.4823
365,1.09106300000002,9.69999999824722e-05,-81.4188907019856,-81.4188907019856,-81.4188907019856,-0.19534760888887,0.0435788186380356,0.0315502048400203,-36.4823
366,1.09116,5.09999999849242e-05,-81.4169728799983,-81.4169728799983,-81.4169728799983,-0.19534760888887,0.0435788186380356,0.0315502048400203,-36.4823
367,1.09121099999999,0.000234000000034484,-81.5115209859362,-81.5115209859362,-81.5115209859362,-0.19671341771471,0.0444727941764212,0.0318702219593054,-36.4823
368,1.09144500000002,9.49999999875217e-05,-81.5115209575668,-81.5115209575668,-81.5115209575668,-0.196713415592615,0.0444727932053232,0.0316511908269667,-36.4823
369,1.09154000000001,9.1999999995096e-05,-81.5429197533902,-81.5429197533902,-81.5429197533902,-0.196715822991779,0.0444723972097883,0.0316518002812267,-36.4823
370,1.091632,5.59999999723004e-05,-81.5410260592743,-81.5410260592743,-81.5410260592743,-0.196715822991779,0.0444723972097883,0.0316518002812267,-36.4823
